$GPRMC,190129.991,V,3401.2069,N,11817.4060,W,000.0,000.0,171016,,,N*60

$GPRMC,190130.991,V,3401.2069,N,11817.4060,W,000.0,000.0,171016,,,N*68

$GPRMC,190131.991,V,3401.2069,N,11817.4060,W,000.0,000.0,171016,,,N*69

$GPRMC,190132.991,V,3401.2069,N,11817.4060,W,000.0,000.0,171016,,,N*6A

$GPRMC,190133.991,V,3401.2069,N,11817.4060,W,000.0,000.0,171016,,,N*6B

$GPRMC,190134.991,V,3401.2069,N,11817.4060,W,000.0,000.0,171016,,,N*6C

$GPRMC,190135.991,V,3401.2069,N,11817.4060,W,000.0,000.0,171016,,,N*6D

$GPRMC,190136.991,V,3401.2069,N,11817.4060,W,000.0,000.0,171016,,,N*6E

$GPRMC,190137.991,V,3401.2069,N,11817.4060,W,000.0,000.0,171016,,,N*6F

$GPRMC,190138.991,V,3401.2069,N,11817.4060,W,000.0,000.0,171016,,,N*60

$GPRMC,190139.991,V,3401.2069,N,11817.4060,W,000.0,000.0,171016,,,N*61

$GPRMC,190140.991,V,3401.2069,N,11817.4060,W,000.0,000.0,171016,,,N*6F

$GPRMC,190141.991,V,3401.2069,N,11817.4060,W,000.0,000.0,171016,,,N*6E

$GPRMC,190142.991,V,3401.2069,N,11817.4060,W,000.0,000.0,171016,,,N*6D

$GPRMC,190143.991,V,3401.2069,N,11817.4060,W,000.0,000.0,171016,,,N*6C

$GPRMC,190144.991,V,3401.2069,N,11817.4060,W,000.0,000.0,171016,,,N*6B

$GPRMC,190145.991,V,3401.2069,N,11817.4060,W,000.0,000.0,171016,,,N*6A

$GPRMC,190146.991,V,3401.2069,N,11817.4060,W,000.0,000.0,171016,,,N*69

$GPRMC,190147.991,V,3401.2069,N,11817.4060,W,000.0,000.0,171016,,,N*68

$GPRMC,190148.991,V,3401.2069,N,11817.4060,W,000.0,000.0,171016,,,N*67

$GPRMC,190149.991,V,3401.2069,N,11817.4060,W,000.0,000.0,171016,,,N*66

$GPRMC,190150.991,V,3401.2069,N,11817.4060,W,000.0,000.0,171016,,,N*6E

$GPRMC,190151.991,V,3401.2069,N,11817.4060,W,000.0,000.0,171016,,,N*6F

$GPRMC,190152.991,V,3401.2069,N,11817.4060,W,000.0,000.0,171016,,,N*6C

$GPRMC,190153.991,V,3401.2069,N,11817.4060,W,000.0,000.0,171016,,,N*6D

$GPRMC,190154.991,V,3401.2069,N,11817.4060,W,000.0,000.0,171016,,,N*6A

$GPRMC,190155.991,V,3401.2069,N,11817.4060,W,000.0,000.0,171016,,,N*6B

$GPRMC,190156.991,V,3401.2069,N,11817.4060,W,000.0,000.0,171016,,,N*68

$GPRMC,190157.991,V,3401.2069,N,11817.4060,W,000.0,000.0,171016,,,N*69

$GPRMC,190158.991,V,3401.2069,N,11817.4060,W,000.0,000.0,171016,,,N*66

$GPRMC,190159.991,V,3401.2069,N,11817.4060,W,000.0,000.0,171016,,,N*67

$GPRMC,190200.991,V,3401.2069,N,11817.4060,W,000.0,000.0,171016,,,N*68

$GPRMC,190201.991,V,3401.2069,N,11817.4060,W,000.0,000.0,171016,,,N*69

$GPRMC,190202.991,V,3401.2069,N,11817.4060,W,000.0,000.0,171016,,,N*6A

$GPRMC,190203.991,V,3401.2069,N,11817.4060,W,000.0,000.0,171016,,,N*6B

$GPRMC,190204.991,V,3401.2069,N,11817.4060,W,000.0,000.0,171016,,,N*6C

$GPRMC,190205.991,V,3401.2069,N,11817.4060,W,000.0,000.0,171016,,,N*6D

$GPRMC,190206.991,V,3401.2069,N,11817.4060,W,000.0,000.0,171016,,,N*6E

$GPRMC,190207.991,V,3401.2069,N,11817.4060,W,000.0,000.0,171016,,,N*6F

$GPRMC,190208.991,V,3401.2069,N,11817.4060,W,000.0,000.0,171016,,,N*60

$GPRMC,190209.991,V,3401.2069,N,11817.4060,W,000.0,000.0,171016,,,N*61

$GPRMC,190210.991,V,3401.2069,N,11817.4060,W,000.0,000.0,171016,,,N*69

$GPRMC,190211.991,V,3401.2069,N,11817.4060,W,000.0,000.0,171016,,,N*68

$GPRMC,190212.991,V,3401.2069,N,11817.4060,W,000.0,000.0,171016,,,N*6B

$GPRMC,190213.991,V,3401.2069,N,11817.4060,W,000.0,000.0,171016,,,N*6A

$GPRMC,190214.991,V,3401.2069,N,11817.4060,W,000.0,000.0,171016,,,N*6D

$GPRMC,190215.991,V,3401.2069,N,11817.4060,W,000.0,000.0,171016,,,N*6C

$GPRMC,190216.991,V,3401.2069,N,11817.4060,W,000.0,000.0,171016,,,N*6F

$GPRMC,190217.991,V,3401.2069,N,11817.4060,W,000.0,000.0,171016,,,N*6E

$GPRMC,190218.991,V,3401.2069,N,11817.4060,W,000.0,000.0,171016,,,N*61

$GPRMC,190219.991,V,3401.2069,N,11817.4060,W,000.0,000.0,171016,,,N*60

$GPRMC,190220.991,V,3401.2069,N,11817.4060,W,000.0,000.0,171016,,,N*6A

$GPRMC,190221.991,V,3401.2069,N,11817.4060,W,000.0,000.0,171016,,,N*6B

$GPRMC,190222.992,V,3401.2069,N,11817.4060,W,000.0,000.0,171016,,,N*6B

$GPRMC,190223.992,V,3401.2069,N,11817.4060,W,000.0,000.0,171016,,,N*6A

$GPRMC,190224.992,V,3401.2069,N,11817.4060,W,000.0,000.0,171016,,,N*6D

$GPRMC,190225.992,V,3401.2069,N,11817.4060,W,000.0,000.0,171016,,,N*6C

$GPRMC,190226.992,V,3401.2069,N,11817.4060,W,000.0,000.0,171016,,,N*6F

$GPRMC,190227.992,V,3401.2069,N,11817.4060,W,000.0,000.0,171016,,,N*6E

$GPRMC,190228.992,V,3401.2069,N,11817.4060,W,000.0,000.0,171016,,,N*61

$GPRMC,190229.992,V,3401.2069,N,11817.4060,W,000.0,000.0,171016,,,N*60

$GPRMC,190230.992,V,3401.2069,N,11817.4060,W,000.0,000.0,171016,,,N*68

$GPRMC,190231.992,V,3401.2069,N,11817.4060,W,000.0,000.0,171016,,,N*69

$GPRMC,190232.992,V,3401.2069,N,11817.4060,W,000.0,000.0,171016,,,N*6A

$GPRMC,190233.992,V,3401.2069,N,11817.4060,W,000.0,000.0,171016,,,N*6B

$GPRMC,190234.992,V,3401.2069,N,11817.4060,W,000.0,000.0,171016,,,N*6C

$GPRMC,190235.992,V,3401.2069,N,11817.4060,W,000.0,000.0,171016,,,N*6D

$GPRMC,190236.992,V,3401.2069,N,11817.4060,W,000.0,000.0,171016,,,N*6E

$GPRMC,190237.992,V,3401.2069,N,11817.4060,W,000.0,000.0,171016,,,N*6F

$GPRMC,190238.992,V,3401.2069,N,11817.4060,W,000.0,000.0,171016,,,N*60

$GPRMC,190239.992,V,3401.2069,N,11817.4060,W,000.0,000.0,171016,,,N*61

$GPRMC,190240.992,V,3401.2069,N,11817.4060,W,000.0,000.0,171016,,,N*6F

$GPRMC,190241.992,V,3401.2069,N,11817.4060,W,000.0,000.0,171016,,,N*6E

$GPRMC,190242.992,V,3401.2069,N,11817.4060,W,000.0,000.0,171016,,,N*6D

$GPRMC,190243.992,V,3401.2069,N,11817.4060,W,000.0,000.0,171016,,,N*6C

$GPRMC,190244.992,V,3401.2069,N,11817.4060,W,000.0,000.0,171016,,,N*6B

$GPRMC,190245.992,V,3401.2069,N,11817.4060,W,000.0,000.0,171016,,,N*6A

$GPRMC,190246.992,V,3401.2069,N,11817.4060,W,000.0,000.0,171016,,,N*69

$GPRMC,190247.992,V,3401.2069,N,11817.4060,W,000.0,000.0,171016,,,N*68

$GPRMC,190248.992,V,3401.2069,N,11817.4060,W,000.0,000.0,171016,,,N*67

$GPRMC,190249.992,V,3401.2069,N,11817.4060,W,000.0,000.0,171016,,,N*66

$GPRMC,190250.992,V,3401.2069,N,11817.4060,W,000.0,000.0,171016,,,N*6E

$GPRMC,190251.992,V,3401.2069,N,11817.4060,W,000.0,000.0,171016,,,N*6F

$GPRMC,190252.992,V,3401.2069,N,11817.4060,W,000.0,000.0,171016,,,N*6C

$GPRMC,190253.992,V,3401.2069,N,11817.4060,W,000.0,000.0,171016,,,N*6D

$GPRMC,190254.992,V,3401.2069,N,11817.4060,W,000.0,000.0,171016,,,N*6A

$GPRMC,190255.992,V,3401.2069,N,11817.4060,W,000.0,000.0,171016,,,N*6B

$GPRMC,190256.992,V,3401.2069,N,11817.4060,W,000.0,000.0,171016,,,N*68

$GPRMC,190257.992,V,3401.2069,N,11817.4060,W,000.0,000.0,171016,,,N*69

$GPRMC,190258.992,V,3401.2069,N,11817.4060,W,000.0,000.0,171016,,,N*66

$GPRMC,190259.992,V,3401.2069,N,11817.4060,W,000.0,000.0,171016,,,N*67

$GPRMC,190300.992,V,3401.2069,N,11817.4060,W,000.0,000.0,171016,,,N*6A

$GPRMC,190301.992,V,3401.2069,N,11817.4060,W,000.0,000.0,171016,,,N*6B

$GPRMC,190302.992,V,3401.2069,N,11817.4060,W,000.0,000.0,171016,,,N*68

$GPRMC,190303.992,V,3401.2069,N,11817.4060,W,000.0,000.0,171016,,,N*69

$GPRMC,190304.992,V,3401.2069,N,11817.4060,W,000.0,000.0,171016,,,N*6E

$GPRMC,190305.992,V,3401.2069,N,11817.4060,W,000.0,000.0,171016,,,N*6F

$GPRMC,190306.992,V,3401.2069,N,11817.4060,W,000.0,000.0,171016,,,N*6C

$GPRMC,190307.992,V,3401.2069,N,11817.4060,W,000.0,000.0,171016,,,N*6D

$GPRMC,190308.992,V,3401.2069,N,11817.4060,W,000.0,000.0,171016,,,N*62

$GPRMC,190309.992,V,3401.2069,N,11817.4060,W,000.0,000.0,171016,,,N*63

$GPRMC,190310.992,V,3401.2069,N,11817.4060,W,000.0,000.0,171016,,,N*6B

$GPRMC,190311.992,V,3401.2069,N,11817.4060,W,000.0,000.0,171016,,,N*6A

$GPRMC,190312.992,V,3401.2069,N,11817.4060,W,000.0,000.0,171016,,,N*69

$GPRMC,190313.992,V,3401.2069,N,11817.4060,W,000.0,000.0,171016,,,N*68

$GPRMC,190314.992,V,3401.2069,N,11817.4060,W,000.0,000.0,171016,,,N*6F

$GPRMC,190315.992,V,3401.2069,N,11817.4060,W,000.0,000.0,171016,,,N*6E

$GPRMC,190316.992,V,3401.2069,N,11817.4060,W,000.0,000.0,171016,,,N*6D

$GPRMC,190317.992,V,3401.2069,N,11817.4060,W,000.0,000.0,171016,,,N*6C

$GPRMC,190318.992,V,3401.2069,N,11817.4060,W,000.0,000.0,171016,,,N*63

$GPRMC,190319.992,V,3401.2069,N,11817.4060,W,000.0,000.0,171016,,,N*62

$GPRMC,190320.992,V,3401.2069,N,11817.4060,W,000.0,000.0,171016,,,N*68

$GPRMC,190321.992,V,3401.2069,N,11817.4060,W,000.0,000.0,171016,,,N*69

$GPRMC,190322.992,V,3401.2069,N,11817.4060,W,000.0,000.0,171016,,,N*6A

$GPRMC,190323.992,V,3401.2069,N,11817.4060,W,000.0,000.0,171016,,,N*6B

$GPRMC,190324.992,V,3401.2069,N,11817.4060,W,000.0,000.0,171016,,,N*6C

$GPRMC,190325.992,V,3401.2069,N,11817.4060,W,000.0,000.0,171016,,,N*6D

$GPRMC,190326.992,V,3401.2069,N,11817.4060,W,000.0,000.0,171016,,,N*6E

$GPRMC,190327.992,V,3401.2069,N,11817.4060,W,000.0,000.0,171016,,,N*6F

$GPRMC,190328.992,V,3401.2069,N,11817.4060,W,000.0,000.0,171016,,,N*60

$GPRMC,190329.992,V,3401.2069,N,11817.4060,W,000.0,000.0,171016,,,N*61

$GPRMC,190330.992,V,3401.2069,N,11817.4060,W,000.0,000.0,171016,,,N*69

$GPRMC,190331.992,V,3401.2069,N,11817.4060,W,000.0,000.0,171016,,,N*68

$GPRMC,190332.992,V,3401.2069,N,11817.4060,W,000.0,000.0,171016,,,N*6B

$GPRMC,190333.992,V,3401.2069,N,11817.4060,W,000.0,000.0,171016,,,N*6A

$GPRMC,190334.992,V,3401.2069,N,11817.4060,W,000.0,000.0,171016,,,N*6D

$GPRMC,190335.992,V,3401.2069,N,11817.4060,W,000.0,000.0,171016,,,N*6C

$GPRMC,190336.992,V,3401.2069,N,11817.4060,W,000.0,000.0,171016,,,N*6F

$GPRMC,190337.992,V,3401.2069,N,11817.4060,W,000.0,000.0,171016,,,N*6E

$GPRMC,190338.992,V,3401.2069,N,11817.4060,W,000.0,000.0,171016,,,N*61

$GPRMC,190339.992,V,3401.2069,N,11817.4060,W,000.0,000.0,171016,,,N*60

$GPRMC,190340.992,V,3401.2069,N,11817.4060,W,000.0,000.0,171016,,,N*6E

$GPRMC,190341.992,V,3401.2069,N,11817.4060,W,000.0,000.0,171016,,,N*6F

$GPRMC,190342.992,V,3401.2069,N,11817.4060,W,000.0,000.0,171016,,,N*6C

$GPRMC,190343.992,V,3401.2069,N,11817.4060,W,000.0,000.0,171016,,,N*6D

$GPRMC,190344.992,V,3401.2069,N,11817.4060,W,000.0,000.0,171016,,,N*6A

$GPRMC,190345.992,V,3401.2069,N,11817.4060,W,000.0,000.0,171016,,,N*6B

$GPRMC,190346.992,V,3401.2069,N,11817.4060,W,000.0,000.0,171016,,,N*68

$GPRMC,190347.992,V,3401.2069,N,11817.4060,W,000.0,000.0,171016,,,N*69

$GPRMC,190348.992,V,3401.2069,N,11817.4060,W,000.0,000.0,171016,,,N*66

$GPRMC,190349.992,V,3401.2069,N,11817.4060,W,000.0,000.0,171016,,,N*67

$GPRMC,190350.992,V,3401.2069,N,11817.4060,W,000.0,000.0,171016,,,N*6F

$GPRMC,190351.992,V,3401.2069,N,11817.4060,W,000.0,000.0,171016,,,N*6E

$GPRMC,190352.992,A,3401.2272,N,11817.4130,W,000.0,000.0,171016,,,A*79

$GPRMC,190353.992,A,3401.2237,N,11817.4057,W,007.0,311.6,171016,,,A*7B

$GPRMC,190354.992,A,3401.2251,N,11817.4074,W,000.0,000.0,171016,,,A*7F

$GPRMC,190355.992,A,3401.2240,N,11817.4067,W,000.0,000.0,171016,,,A*7C

$GPRMC,190356.992,A,3401.2226,N,11817.4051,W,000.0,000.0,171016,,,A*7A

$GPRMC,190357.992,A,3401.2227,N,11817.4053,W,000.0,000.0,171016,,,A*78

$GPRMC,190358.992,A,3401.2230,N,11817.4055,W,000.0,000.0,171016,,,A*77

$GPRMC,190359.992,A,3401.2233,N,11817.4057,W,000.0,000.0,171016,,,A*77

$GPRMC,190400.992,V,3401.2233,N,11817.4057,W,000.0,000.0,171016,,,E*6F

$GPRMC,190401.992,A,3401.2248,N,11817.4052,W,001.8,311.5,171016,,,A*7B

$GPRMC,190402.992,V,3401.2248,N,11817.4052,W,002.3,311.5,171016,,,N*68

$GPRMC,190403.992,V,3401.2248,N,11817.4052,W,002.2,311.5,171016,,,N*68

$GPRMC,190404.992,A,3401.2251,N,11817.4057,W,002.4,280.8,171016,,,A*78

$GPRMC,190405.992,V,3401.2251,N,11817.4057,W,002.5,280.8,171016,,,N*60

$GPRMC,190406.992,A,3401.2258,N,11817.4058,W,002.2,275.4,171016,,,A*7C

$GPRMC,190407.992,V,3401.2258,N,11817.4058,W,002.4,275.4,171016,,,N*63

$GPRMC,190408.992,V,3401.2258,N,11817.4058,W,003.4,275.4,171016,,,N*6D

$GPRMC,190409.992,V,3401.2258,N,11817.4058,W,003.6,275.4,171016,,,N*6E

$GPRMC,190410.992,V,3401.2258,N,11817.4058,W,003.1,275.4,171016,,,N*61

$GPRMC,190411.992,V,3401.2258,N,11817.4058,W,002.2,275.4,171016,,,N*62

$GPRMC,190412.992,V,3401.2258,N,11817.4058,W,006.2,275.4,171016,,,N*65

$GPRMC,190413.992,V,3401.2258,N,11817.4058,W,002.2,275.4,171016,,,N*60

$GPRMC,190414.992,V,3401.2258,N,11817.4058,W,007.1,275.4,171016,,,N*61

$GPRMC,190415.992,V,3401.2258,N,11817.4058,W,011.5,275.4,171016,,,N*63

$GPRMC,190416.992,V,3401.2258,N,11817.4058,W,006.8,275.4,171016,,,N*6B

$GPRMC,190417.992,V,3401.2258,N,11817.4058,W,003.9,275.4,171016,,,N*6E

$GPRMC,190418.992,V,3401.2258,N,11817.4058,W,003.9,275.4,171016,,,N*61

$GPRMC,190419.992,V,3401.2258,N,11817.4058,W,007.0,275.4,171016,,,N*6D

$GPRMC,190420.992,V,3401.2258,N,11817.4058,W,004.4,275.4,171016,,,N*60

$GPRMC,190421.992,V,3401.2258,N,11817.4058,W,003.1,275.4,171016,,,N*63

$GPRMC,190422.992,V,3401.2258,N,11817.4058,W,002.7,275.4,171016,,,N*67

$GPRMC,190423.992,V,3401.2258,N,11817.4058,W,007.5,275.4,171016,,,N*61

$GPRMC,190424.992,V,3401.2258,N,11817.4058,W,003.5,275.4,171016,,,N*62

$GPRMC,190425.992,V,3401.2258,N,11817.4058,W,003.0,275.4,171016,,,N*66

$GPRMC,190426.992,V,3401.2258,N,11817.4058,W,002.6,275.4,171016,,,N*62

$GPRMC,190427.992,V,3401.2258,N,11817.4058,W,009.8,275.4,171016,,,N*66

$GPRMC,190428.992,V,3401.2258,N,11817.4058,W,006.7,275.4,171016,,,N*69

$GPRMC,190429.992,V,3401.2258,N,11817.4058,W,002.3,275.4,171016,,,N*68

$GPRMC,190430.992,V,3401.2258,N,11817.4058,W,001.8,275.4,171016,,,N*68

$GPRMC,190431.992,V,3401.2258,N,11817.4058,W,002.5,275.4,171016,,,N*67

$GPRMC,190432.992,V,3401.2258,N,11817.4058,W,008.0,275.4,171016,,,N*6B

$GPRMC,190433.992,V,3401.2258,N,11817.4058,W,009.6,275.4,171016,,,N*6D

$GPRMC,190434.992,V,3401.2258,N,11817.4058,W,003.3,275.4,171016,,,N*65

$GPRMC,190435.992,V,3401.2258,N,11817.4058,W,007.5,275.4,171016,,,N*66

$GPRMC,190436.992,V,3401.2258,N,11817.4058,W,003.3,275.4,171016,,,N*67

$GPRMC,190437.992,V,3401.2258,N,11817.4058,W,005.0,275.4,171016,,,N*63

$GPRMC,190438.992,V,3401.2258,N,11817.4058,W,004.3,275.4,171016,,,N*6E

$GPRMC,190439.992,V,3401.2258,N,11817.4058,W,003.8,275.4,171016,,,N*63

$GPRMC,190440.992,V,3401.2258,N,11817.4058,W,005.0,275.4,171016,,,N*63

$GPRMC,190441.992,V,3401.2258,N,11817.4058,W,001.9,275.4,171016,,,N*6F

$GPRMC,190442.992,V,3401.2258,N,11817.4058,W,002.8,275.4,171016,,,N*6E

$GPRMC,190443.992,V,3401.2258,N,11817.4058,W,005.3,275.4,171016,,,N*63

$GPRMC,190444.992,V,3401.2258,N,11817.4058,W,007.2,275.4,171016,,,N*67

$GPRMC,190445.992,V,3401.2258,N,11817.4058,W,002.8,275.4,171016,,,N*69

$GPRMC,190446.992,V,3401.2258,N,11817.4058,W,002.1,275.4,171016,,,N*63

$GPRMC,190447.992,V,3401.2258,N,11817.4058,W,002.7,275.4,171016,,,N*64

$GPRMC,190448.992,V,3401.2258,N,11817.4058,W,001.9,275.4,171016,,,N*66

$GPRMC,190449.992,V,3401.2258,N,11817.4058,W,002.4,275.4,171016,,,N*69

$GPRMC,190450.992,V,3401.2258,N,11817.4058,W,002.2,275.4,171016,,,N*67

$GPRMC,190451.992,V,3401.2258,N,11817.4058,W,010.6,275.4,171016,,,N*61

$GPRMC,190452.992,V,3401.2258,N,11817.4058,W,009.3,275.4,171016,,,N*6F

$GPRMC,190453.992,V,3401.2258,N,11817.4058,W,002.9,275.4,171016,,,N*6F

$GPRMC,190454.992,V,3401.2258,N,11817.4058,W,001.8,275.4,171016,,,N*6A

$GPRMC,190455.992,V,3401.2258,N,11817.4058,W,007.8,275.4,171016,,,N*6D

$GPRMC,190456.992,V,3401.2258,N,11817.4058,W,007.7,275.4,171016,,,N*61

$GPRMC,190457.992,V,3401.2258,N,11817.4058,W,003.9,275.4,171016,,,N*6A

$GPRMC,190458.992,V,3401.2258,N,11817.4058,W,002.2,275.4,171016,,,N*6F

$GPRMC,190459.992,V,3401.2258,N,11817.4058,W,002.2,275.4,171016,,,N*6E

$GPRMC,190500.992,V,3401.2258,N,11817.4058,W,002.2,275.4,171016,,,N*63

$GPRMC,190501.992,V,3401.2258,N,11817.4058,W,010.4,275.4,171016,,,N*67

$GPRMC,190502.992,V,3401.2258,N,11817.4058,W,006.7,275.4,171016,,,N*60

$GPRMC,190503.992,V,3401.2258,N,11817.4058,W,010.2,275.4,171016,,,N*63

$GPRMC,190504.992,V,3401.2258,N,11817.4058,W,008.7,275.4,171016,,,N*68

$GPRMC,190505.992,V,3401.2258,N,11817.4058,W,008.1,275.4,171016,,,N*6F

$GPRMC,190506.992,V,3401.2258,N,11817.4058,W,004.5,275.4,171016,,,N*64

$GPRMC,190507.992,A,3401.2324,N,11817.4691,W,009.7,156.9,171016,,,A*74

$GPRMC,190508.992,V,3401.2324,N,11817.4691,W,008.3,156.9,171016,,,N*66

$GPRMC,190509.992,V,3401.2324,N,11817.4691,W,012.7,156.9,171016,,,N*68

$GPRMC,190510.992,V,3401.2324,N,11817.4691,W,006.0,156.9,171016,,,N*62

$GPRMC,190511.992,V,3401.2324,N,11817.4691,W,006.9,156.9,171016,,,N*6A

$GPRMC,190512.992,A,3401.2295,N,11817.4674,W,009.4,169.5,171016,,,A*73

$GPRMC,190513.992,V,3401.2295,N,11817.4674,W,012.6,169.5,171016,,,N*62

$GPRMC,190514.992,A,3401.2272,N,11817.4660,W,008.2,180.1,171016,,,A*7D

$GPRMC,190515.992,A,3401.2253,N,11817.4673,W,008.0,196.2,171016,,,A*7B

$GPRMC,190516.992,A,3401.2233,N,11817.4679,W,007.6,194.5,171016,,,A*78

$GPRMC,190517.992,A,3401.2233,N,11817.4679,W,006.6,194.5,171016,,,A*78

$GPRMC,190518.992,A,3401.2216,N,11817.4681,W,006.5,188.1,171016,,,A*7D

$GPRMC,190519.992,A,3401.2202,N,11817.4681,W,006.1,186.7,171016,,,A*75

$GPRMC,190520.992,A,3401.2190,N,11817.4679,W,005.6,183.9,171016,,,A*7F

$GPRMC,190521.992,A,3401.2183,N,11817.4676,W,005.0,180.6,171016,,,A*79

$GPRMC,190522.992,A,3401.2175,N,11817.4671,W,004.6,178.4,171016,,,A*76

$GPRMC,190523.992,A,3401.2169,N,11817.4665,W,004.1,172.4,171016,,,A*72

$GPRMC,190524.992,A,3401.2163,N,11817.4661,W,003.8,171.3,171016,,,A*71

$GPRMC,190525.992,A,3401.2164,N,11817.4663,W,003.3,176.0,171016,,,A*7A

$GPRMC,190526.992,A,3401.2158,N,11817.4665,W,003.0,176.3,171016,,,A*70

$GPRMC,190527.992,V,3401.2158,N,11817.4665,W,003.2,176.3,171016,,,E*60

$GPRMC,190528.992,V,3401.2158,N,11817.4665,W,003.6,176.3,171016,,,E*6B

$GPRMC,190529.992,V,3401.2158,N,11817.4665,W,003.3,176.3,171016,,,E*6F

$GPRMC,190530.992,V,3401.2158,N,11817.4665,W,007.0,176.3,171016,,,N*6B

$GPRMC,190531.992,V,3401.2158,N,11817.4665,W,003.0,176.3,171016,,,N*6E

$GPRMC,190532.992,V,3401.2158,N,11817.4665,W,003.0,176.3,171016,,,N*6D

$GPRMC,190533.992,V,3401.2158,N,11817.4665,W,009.7,176.3,171016,,,N*61

$GPRMC,190534.992,A,3401.2153,N,11817.4654,W,003.3,086.9,171016,,,A*7D

$GPRMC,190535.992,V,3401.2153,N,11817.4654,W,003.3,086.9,171016,,,N*64

$GPRMC,190536.992,V,3401.2153,N,11817.4654,W,012.8,086.9,171016,,,N*6C

$GPRMC,190537.992,V,3401.2153,N,11817.4654,W,003.3,086.9,171016,,,N*66

$GPRMC,190538.992,V,3401.2153,N,11817.4654,W,003.3,086.9,171016,,,N*69

$GPRMC,190539.992,V,3401.2153,N,11817.4654,W,005.1,086.9,171016,,,N*6C

$GPRMC,190540.992,V,3401.2153,N,11817.4654,W,003.3,086.9,171016,,,N*66

$GPRMC,190541.992,A,3401.2162,N,11817.4640,W,002.6,091.0,171016,,,A*73

$GPRMC,190542.992,A,3401.2163,N,11817.4636,W,002.7,077.0,171016,,,A*79

$GPRMC,190543.992,A,3401.2163,N,11817.4629,W,001.8,106.9,171016,,,A*74

$GPRMC,190544.992,A,3401.2161,N,11817.4623,W,001.9,101.4,171016,,,A*70

$GPRMC,190545.992,A,3401.2158,N,11817.4617,W,001.9,114.7,171016,,,A*7B

$GPRMC,190546.992,A,3401.2159,N,11817.4609,W,002.3,093.3,171016,,,A*75

$GPRMC,190547.992,V,3401.2159,N,11817.4609,W,002.3,093.3,171016,,,E*67

$GPRMC,190548.992,A,3401.2159,N,11817.4600,W,002.7,086.1,171016,,,A*70

$GPRMC,190549.992,A,3401.2160,N,11817.4586,W,003.8,077.4,171016,,,A*73

$GPRMC,190550.992,A,3401.2151,N,11817.4581,W,002.9,095.6,171016,,,A*70

$GPRMC,190551.992,A,3401.2150,N,11817.4576,W,002.9,089.9,171016,,,A*7A

$GPRMC,190552.992,A,3401.2138,N,11817.4578,W,002.2,138.1,171016,,,A*71

$GPRMC,190553.992,A,3401.2131,N,11817.4565,W,002.7,116.6,171016,,,A*7B

$GPRMC,190554.992,A,3401.2126,N,11817.4557,W,002.7,118.2,171016,,,A*71

$GPRMC,190555.992,A,3401.2123,N,11817.4552,W,002.3,122.0,171016,,,A*7F

$GPRMC,190556.992,A,3401.2117,N,11817.4541,W,002.6,120.4,171016,,,A*7A

$GPRMC,190557.992,A,3401.2101,N,11817.4521,W,003.3,118.1,171016,,,A*70

$GPRMC,190558.992,A,3401.2080,N,11817.4493,W,004.2,125.8,171016,,,A*7E

$GPRMC,190559.992,A,3401.2072,N,11817.4476,W,004.3,123.7,171016,,,A*71

$GPRMC,190600.992,A,3401.2060,N,11817.4464,W,004.4,130.1,171016,,,A*7D

$GPRMC,190601.992,A,3401.2054,N,11817.4455,W,004.3,128.2,171016,,,A*74

$GPRMC,190602.992,A,3401.2051,N,11817.4442,W,004.5,122.7,171016,,,A*7D

$GPRMC,190603.992,A,3401.2019,N,11817.4411,W,004.9,133.4,171016,,,A*79

$GPRMC,190604.992,A,3401.1968,N,11817.4343,W,006.4,135.5,171016,,,A*7A

$GPRMC,190605.992,A,3401.1940,N,11817.4324,W,007.1,145.6,171016,,,A*70

$GPRMC,190606.992,V,3401.1926,N,11817.4313,W,007.1,145.6,171016,,,E*64

$GPRMC,190607.992,A,3401.1900,N,11817.4316,W,007.6,156.0,171016,,,A*74

$GPRMC,190608.992,A,3401.1880,N,11817.4312,W,007.6,159.7,171016,,,A*7E

$GPRMC,190609.992,V,3401.1880,N,11817.4312,W,007.6,159.7,171016,,,N*67

$GPRMC,190610.992,V,3401.1880,N,11817.4312,W,007.6,159.7,171016,,,N*6F

$GPRMC,190611.992,V,3401.1880,N,11817.4312,W,007.6,159.7,171016,,,N*6E

$GPRMC,190612.992,V,3401.1880,N,11817.4312,W,007.6,159.7,171016,,,N*6D

$GPRMC,190613.992,V,3401.1880,N,11817.4312,W,007.6,159.7,171016,,,N*6C

$GPRMC,190614.992,V,3401.1880,N,11817.4312,W,007.6,159.7,171016,,,N*6B

$GPRMC,190615.992,V,3401.1880,N,11817.4312,W,007.6,159.7,171016,,,N*6A

$GPRMC,190616.992,V,3401.1880,N,11817.4312,W,007.6,159.7,171016,,,N*69

$GPRMC,190617.992,V,3401.1880,N,11817.4312,W,007.6,159.7,171016,,,N*68

$GPRMC,190618.992,V,3401.1880,N,11817.4312,W,007.6,159.7,171016,,,N*67

$GPRMC,190619.992,V,3401.1880,N,11817.4312,W,007.6,159.7,171016,,,N*66

$GPRMC,190620.992,V,3401.1880,N,11817.4312,W,007.6,159.7,171016,,,N*6C

$GPRMC,190621.992,V,3401.1880,N,11817.4312,W,007.6,159.7,171016,,,N*6D

$GPRMC,190622.992,V,3401.1880,N,11817.4312,W,007.6,159.7,171016,,,N*6E

$GPRMC,190623.992,A,3401.1971,N,11817.4272,W,004.6,160.4,171016,,,A*75

$GPRMC,190624.992,A,3401.1976,N,11817.4289,W,004.9,164.3,171016,,,A*7D

$GPRMC,190625.992,A,3401.1973,N,11817.4285,W,004.0,156.4,171016,,,A*7A

$GPRMC,190626.992,A,3401.1961,N,11817.4260,W,004.3,133.7,171016,,,A*72

$GPRMC,190627.992,A,3401.1978,N,11817.4263,W,004.6,114.3,171016,,,A*7C

$GPRMC,190628.992,A,3401.1988,N,11817.4262,W,003.7,116.9,171016,,,A*73

$GPRMC,190629.992,A,3401.1986,N,11817.4253,W,003.1,123.3,171016,,,A*74

$GPRMC,190630.992,A,3401.1992,N,11817.4242,W,002.6,129.6,171016,,,A*70

$GPRMC,190631.992,A,3401.2001,N,11817.4219,W,002.5,110.0,171016,,,A*70

$GPRMC,190632.992,A,3401.2013,N,11817.4194,W,003.0,087.5,171016,,,A*78

$GPRMC,190633.992,V,3401.2013,N,11817.4186,W,002.9,087.5,171016,,,E*61

$GPRMC,190634.992,V,3401.2014,N,11817.4181,W,005.4,087.5,171016,,,E*6C

$GPRMC,190635.992,V,3401.2014,N,11817.4179,W,005.9,087.5,171016,,,E*67

$GPRMC,190636.992,V,3401.2014,N,11817.4179,W,003.4,087.5,171016,,,N*64

$GPRMC,190637.992,V,3401.2014,N,11817.4179,W,010.1,087.5,171016,,,N*62

$GPRMC,190638.992,V,3401.2014,N,11817.4179,W,002.7,087.5,171016,,,N*68

$GPRMC,190639.992,V,3401.2014,N,11817.4179,W,002.8,087.5,171016,,,N*66

$GPRMC,190640.992,V,3401.2014,N,11817.4179,W,002.5,087.5,171016,,,N*65

$GPRMC,190641.992,V,3401.2014,N,11817.4179,W,002.4,087.5,171016,,,N*65

$GPRMC,190642.992,V,3401.2014,N,11817.4179,W,002.9,087.5,171016,,,N*6B

$GPRMC,190643.992,V,3401.2014,N,11817.4179,W,003.3,087.5,171016,,,N*61

$GPRMC,190644.992,V,3401.2014,N,11817.4179,W,001.7,087.5,171016,,,N*60

$GPRMC,190645.992,V,3401.2014,N,11817.4179,W,003.0,087.5,171016,,,N*64

$GPRMC,190646.992,V,3401.2014,N,11817.4179,W,003.0,087.5,171016,,,N*67

$GPRMC,190647.992,V,3401.2014,N,11817.4179,W,009.1,087.5,171016,,,N*6D

$GPRMC,190648.992,V,3401.2014,N,11817.4179,W,002.0,087.5,171016,,,N*68

$GPRMC,190649.992,V,3401.2014,N,11817.4179,W,003.0,087.5,171016,,,N*68

$GPRMC,190650.992,V,3401.2014,N,11817.4179,W,006.5,087.5,171016,,,N*60

$GPRMC,190651.992,V,3401.2014,N,11817.4179,W,012.1,087.5,171016,,,N*60

$GPRMC,190652.992,V,3401.2014,N,11817.4179,W,003.0,087.5,171016,,,N*62

$GPRMC,190653.992,V,3401.2014,N,11817.4179,W,003.0,087.5,171016,,,N*63

$GPRMC,190654.992,V,3401.2014,N,11817.4179,W,003.0,087.5,171016,,,N*64

$GPRMC,190655.992,V,3401.2014,N,11817.4179,W,005.0,087.5,171016,,,N*63

$GPRMC,190656.992,V,3401.2014,N,11817.4179,W,007.9,087.5,171016,,,N*6B

$GPRMC,190657.992,V,3401.2014,N,11817.4179,W,010.6,087.5,171016,,,N*63

$GPRMC,190658.992,V,3401.2014,N,11817.4179,W,003.0,087.5,171016,,,N*68

$GPRMC,190659.992,V,3401.2014,N,11817.4179,W,009.2,087.5,171016,,,N*61

$GPRMC,190700.992,V,3401.2014,N,11817.4179,W,003.0,087.5,171016,,,N*64

$GPRMC,190701.992,A,3401.2025,N,11817.4176,W,005.3,342.6,171016,,,A*7C

$GPRMC,190702.992,V,3401.2025,N,11817.4176,W,005.3,342.6,171016,,,N*67

$GPRMC,190703.992,V,3401.2025,N,11817.4176,W,005.3,342.6,171016,,,N*66

$GPRMC,190704.992,V,3401.2025,N,11817.4176,W,005.3,342.6,171016,,,N*61

$GPRMC,190705.992,A,3401.2034,N,11817.4175,W,000.0,342.6,171016,,,A*7D

$GPRMC,190706.992,V,3401.2034,N,11817.4175,W,000.0,342.6,171016,,,N*66

$GPRMC,190707.992,A,3401.2035,N,11817.4177,W,000.0,342.6,171016,,,A*7C

$GPRMC,190708.992,V,3401.2035,N,11817.4177,W,000.0,342.6,171016,,,N*6B

$GPRMC,190709.992,V,3401.2035,N,11817.4177,W,003.6,342.6,171016,,,N*6F

$GPRMC,190710.992,V,3401.2035,N,11817.4177,W,003.6,342.6,171016,,,N*67

$GPRMC,190711.992,V,3401.2035,N,11817.4177,W,003.6,342.6,171016,,,N*66

$GPRMC,190712.992,A,3401.2021,N,11817.4176,W,006.9,169.9,171016,,,A*77

$GPRMC,190713.992,V,3401.2021,N,11817.4176,W,006.9,169.9,171016,,,N*6E

$GPRMC,190714.992,V,3401.2021,N,11817.4176,W,006.9,169.9,171016,,,N*69

$GPRMC,190715.992,V,3401.2021,N,11817.4176,W,006.9,169.9,171016,,,N*68

$GPRMC,190716.992,V,3401.2021,N,11817.4176,W,006.9,169.9,171016,,,N*6B

$GPRMC,190717.992,V,3401.2021,N,11817.4176,W,006.9,169.9,171016,,,N*6A

$GPRMC,190718.992,V,3401.2021,N,11817.4176,W,006.9,169.9,171016,,,N*65

$GPRMC,190719.992,V,3401.2021,N,11817.4176,W,006.9,169.9,171016,,,N*64

$GPRMC,190720.992,V,3401.2021,N,11817.4176,W,006.9,169.9,171016,,,N*6E

$GPRMC,190721.992,V,3401.2021,N,11817.4176,W,006.9,169.9,171016,,,N*6F

$GPRMC,190722.992,V,3401.2021,N,11817.4176,W,006.9,169.9,171016,,,N*6C

$GPRMC,190723.992,V,3401.2021,N,11817.4176,W,006.9,169.9,171016,,,N*6D

$GPRMC,190724.992,V,3401.2021,N,11817.4176,W,006.9,169.9,171016,,,N*6A

$GPRMC,190725.992,V,3401.2021,N,11817.4176,W,006.9,169.9,171016,,,N*6B

$GPRMC,190726.992,V,3401.2021,N,11817.4176,W,006.9,169.9,171016,,,N*68

$GPRMC,190727.992,V,3401.2021,N,11817.4176,W,006.9,169.9,171016,,,N*69

$GPRMC,190728.992,V,3401.2021,N,11817.4176,W,006.9,169.9,171016,,,N*66

$GPRMC,190729.992,V,3401.2021,N,11817.4176,W,006.9,169.9,171016,,,N*67

$GPRMC,190730.992,V,3401.2021,N,11817.4176,W,006.9,169.9,171016,,,N*6F

$GPRMC,190731.992,V,3401.2021,N,11817.4176,W,006.9,169.9,171016,,,N*6E

$GPRMC,190732.992,V,3401.2021,N,11817.4176,W,006.9,169.9,171016,,,N*6D

$GPRMC,190733.992,V,3401.2021,N,11817.4176,W,006.9,169.9,171016,,,N*6C

$GPRMC,190734.992,V,3401.2021,N,11817.4176,W,006.9,169.9,171016,,,N*6B

$GPRMC,190735.992,V,3401.2021,N,11817.4176,W,006.9,169.9,171016,,,N*6A

$GPRMC,190736.992,V,3401.2021,N,11817.4176,W,006.9,169.9,171016,,,N*69

$GPRMC,190737.992,V,3401.2021,N,11817.4176,W,006.9,169.9,171016,,,N*68

$GPRMC,190738.992,V,3401.2021,N,11817.4176,W,006.9,169.9,171016,,,N*67

$GPRMC,190739.992,V,3401.2021,N,11817.4176,W,006.9,169.9,171016,,,N*66

$GPRMC,190740.992,V,3401.2021,N,11817.4176,W,006.9,169.9,171016,,,N*68

$GPRMC,190741.992,V,3401.2021,N,11817.4176,W,006.9,169.9,171016,,,N*69

$GPRMC,190742.992,V,3401.2021,N,11817.4176,W,006.9,169.9,171016,,,N*6A

$GPRMC,190743.992,V,3401.2021,N,11817.4176,W,006.9,169.9,171016,,,N*6B

$GPRMC,190744.992,V,3401.2021,N,11817.4176,W,006.9,169.9,171016,,,N*6C

$GPRMC,190745.992,V,3401.2021,N,11817.4176,W,006.9,169.9,171016,,,N*6D

$GPRMC,190746.992,V,3401.2021,N,11817.4176,W,006.9,169.9,171016,,,N*6E

$GPRMC,190747.992,V,3401.2021,N,11817.4176,W,006.9,169.9,171016,,,N*6F

$GPRMC,190748.992,V,3401.2021,N,11817.4176,W,006.9,169.9,171016,,,N*60

$GPRMC,190749.992,V,3401.2021,N,11817.4176,W,006.9,169.9,171016,,,N*61

$GPRMC,190750.992,V,3401.2021,N,11817.4176,W,006.9,169.9,171016,,,N*69

$GPRMC,190751.992,V,3401.2021,N,11817.4176,W,006.9,169.9,171016,,,N*68

$GPRMC,190752.992,V,3401.2021,N,11817.4176,W,006.9,169.9,171016,,,N*6B

$GPRMC,190753.992,V,3401.2021,N,11817.4176,W,006.9,169.9,171016,,,N*6A

$GPRMC,190754.992,V,3401.2021,N,11817.4176,W,006.9,169.9,171016,,,N*6D

$GPRMC,190755.992,V,3401.2021,N,11817.4176,W,006.9,169.9,171016,,,N*6C

$GPRMC,190756.992,V,3401.2021,N,11817.4176,W,006.9,169.9,171016,,,N*6F

$GPRMC,190757.992,V,3401.2021,N,11817.4176,W,006.9,169.9,171016,,,N*6E

$GPRMC,190758.992,V,3401.2021,N,11817.4176,W,006.9,169.9,171016,,,N*61

$GPRMC,190759.992,V,3401.2021,N,11817.4176,W,006.9,169.9,171016,,,N*60

$GPRMC,190800.992,V,3401.2021,N,11817.4176,W,006.9,169.9,171016,,,N*63

$GPRMC,190801.992,V,3401.2021,N,11817.4176,W,006.9,169.9,171016,,,N*62

$GPRMC,190802.993,V,3401.2021,N,11817.4176,W,006.9,169.9,171016,,,N*60

$GPRMC,190803.993,V,3401.2021,N,11817.4176,W,006.9,169.9,171016,,,N*61

$GPRMC,190804.993,V,3401.2021,N,11817.4176,W,006.9,169.9,171016,,,N*66

$GPRMC,190805.993,V,3401.2021,N,11817.4176,W,006.9,169.9,171016,,,N*67

$GPRMC,190806.993,V,3401.2021,N,11817.4176,W,006.9,169.9,171016,,,N*64

$GPRMC,190807.993,V,3401.2021,N,11817.4176,W,006.9,169.9,171016,,,N*65

$GPRMC,190808.993,V,3401.2021,N,11817.4176,W,006.9,169.9,171016,,,N*6A

$GPRMC,190809.993,V,3401.2021,N,11817.4176,W,006.9,169.9,171016,,,N*6B

$GPRMC,190810.993,V,3401.2021,N,11817.4176,W,006.9,169.9,171016,,,N*63

$GPRMC,190811.993,V,3401.2021,N,11817.4176,W,006.9,169.9,171016,,,N*62

$GPRMC,190812.993,V,3401.2021,N,11817.4176,W,006.9,169.9,171016,,,N*61

$GPRMC,190813.993,V,3401.2021,N,11817.4176,W,006.9,169.9,171016,,,N*60

$GPRMC,190814.993,V,3401.2021,N,11817.4176,W,006.9,169.9,171016,,,N*67

$GPRMC,190815.993,V,3401.2021,N,11817.4176,W,006.9,169.9,171016,,,N*66

$GPRMC,190816.993,V,3401.2021,N,11817.4176,W,006.9,169.9,171016,,,N*65

$GPRMC,190817.993,V,3401.2021,N,11817.4176,W,006.9,169.9,171016,,,N*64

$GPRMC,190818.993,V,3401.2021,N,11817.4176,W,006.9,169.9,171016,,,N*6B

$GPRMC,190819.993,V,3401.2021,N,11817.4176,W,006.9,169.9,171016,,,N*6A

$GPRMC,190820.993,V,3401.2021,N,11817.4176,W,006.9,169.9,171016,,,N*60

$GPRMC,190821.993,V,3401.2021,N,11817.4176,W,006.9,169.9,171016,,,N*61

$GPRMC,190822.993,V,3401.2021,N,11817.4176,W,006.9,169.9,171016,,,N*62

$GPRMC,190823.993,V,3401.2021,N,11817.4176,W,006.9,169.9,171016,,,N*63

$GPRMC,190824.993,V,3401.2021,N,11817.4176,W,006.9,169.9,171016,,,N*64

$GPRMC,190825.993,V,3401.2021,N,11817.4176,W,006.9,169.9,171016,,,N*65

$GPRMC,190826.993,V,3401.2021,N,11817.4176,W,006.9,169.9,171016,,,N*66

$GPRMC,190827.993,V,3401.2021,N,11817.4176,W,006.9,169.9,171016,,,N*67

$GPRMC,190828.993,V,3401.2021,N,11817.4176,W,006.9,169.9,171016,,,N*68

$GPRMC,190829.993,V,3401.2021,N,11817.4176,W,006.9,169.9,171016,,,N*69

$GPRMC,190830.993,V,3401.2021,N,11817.4176,W,006.9,169.9,171016,,,N*61

$GPRMC,190831.993,V,3401.2021,N,11817.4176,W,006.9,169.9,171016,,,N*60

$GPRMC,190832.993,V,3401.2021,N,11817.4176,W,006.9,169.9,171016,,,N*63

$GPRMC,190833.993,V,3401.2021,N,11817.4176,W,006.9,169.9,171016,,,N*62

$GPRMC,190834.993,V,3401.2021,N,11817.4176,W,006.9,169.9,171016,,,N*65

$GPRMC,190835.993,V,3401.2021,N,11817.4176,W,006.9,169.9,171016,,,N*64

$GPRMC,190836.993,V,3401.2021,N,11817.4176,W,006.9,169.9,171016,,,N*67

$GPRMC,190837.993,V,3401.2021,N,11817.4176,W,006.9,169.9,171016,,,N*66

$GPRMC,190838.993,V,3401.2021,N,11817.4176,W,006.9,169.9,171016,,,N*69

$GPRMC,190839.993,V,3401.2021,N,11817.4176,W,006.9,169.9,171016,,,N*68

$GPRMC,190840.993,V,3401.2021,N,11817.4176,W,006.9,169.9,171016,,,N*66

$GPRMC,190841.993,V,3401.2021,N,11817.4176,W,006.9,169.9,171016,,,N*67

$GPRMC,190842.993,V,3401.2021,N,11817.4176,W,006.9,169.9,171016,,,N*64

$GPRMC,190843.993,V,3401.2021,N,11817.4176,W,006.9,169.9,171016,,,N*65

$GPRMC,190844.993,V,3401.2021,N,11817.4176,W,006.9,169.9,171016,,,N*62

$GPRMC,190845.993,V,3401.2021,N,11817.4176,W,006.9,169.9,171016,,,N*63

$GPRMC,190846.993,V,3401.2021,N,11817.4176,W,006.9,169.9,171016,,,N*60

$GPRMC,190847.993,V,3401.2021,N,11817.4176,W,006.9,169.9,171016,,,N*61

$GPRMC,190848.993,V,3401.2021,N,11817.4176,W,006.9,169.9,171016,,,N*6E

$GPRMC,190849.993,V,3401.2021,N,11817.4176,W,006.9,169.9,171016,,,N*6F

$GPRMC,190850.993,V,3401.2021,N,11817.4176,W,006.9,169.9,171016,,,N*67

$GPRMC,190851.993,V,3401.2021,N,11817.4176,W,006.9,169.9,171016,,,N*66

$GPRMC,190852.993,V,3401.2021,N,11817.4176,W,006.9,169.9,171016,,,N*65

$GPRMC,190853.993,V,3401.2021,N,11817.4176,W,006.9,169.9,171016,,,N*64

$GPRMC,190854.993,V,3401.2021,N,11817.4176,W,006.9,169.9,171016,,,N*63

$GPRMC,190855.993,V,3401.2021,N,11817.4176,W,006.9,169.9,171016,,,N*62

$GPRMC,190856.993,V,3401.2021,N,11817.4176,W,006.9,169.9,171016,,,N*61

$GPRMC,190857.993,V,3401.2021,N,11817.4176,W,006.9,169.9,171016,,,N*60

$GPRMC,190858.993,V,3401.2021,N,11817.4176,W,006.9,169.9,171016,,,N*6F

$GPRMC,190859.993,V,3401.2021,N,11817.4176,W,006.9,169.9,171016,,,N*6E

$GPRMC,190900.993,V,3401.2021,N,11817.4176,W,006.9,169.9,171016,,,N*63

$GPRMC,190901.993,V,3401.2021,N,11817.4176,W,006.9,169.9,171016,,,N*62

$GPRMC,190902.993,V,3401.2021,N,11817.4176,W,006.9,169.9,171016,,,N*61

$GPRMC,190903.993,V,3401.2021,N,11817.4176,W,006.9,169.9,171016,,,N*60

$GPRMC,190904.993,V,3401.2021,N,11817.4176,W,006.9,169.9,171016,,,N*67

$GPRMC,190905.993,V,3401.2021,N,11817.4176,W,006.9,169.9,171016,,,N*66

$GPRMC,190906.993,V,3401.2021,N,11817.4176,W,006.9,169.9,171016,,,N*65

$GPRMC,190907.993,V,3401.2021,N,11817.4176,W,006.9,169.9,171016,,,N*64

$GPRMC,190908.993,V,3401.2021,N,11817.4176,W,006.9,169.9,171016,,,N*6B

$GPRMC,190909.993,V,3401.2021,N,11817.4176,W,006.9,169.9,171016,,,N*6A

$GPRMC,190910.993,V,3401.2021,N,11817.4176,W,006.9,169.9,171016,,,N*62

$GPRMC,190911.993,V,3401.2021,N,11817.4176,W,006.9,169.9,171016,,,N*63

$GPRMC,190912.993,V,3401.2021,N,11817.4176,W,006.9,169.9,171016,,,N*60

$GPRMC,190913.993,V,3401.2021,N,11817.4176,W,006.9,169.9,171016,,,N*61

$GPRMC,190914.993,V,3401.2021,N,11817.4176,W,006.9,169.9,171016,,,N*66

$GPRMC,190915.993,V,3401.2021,N,11817.4176,W,006.9,169.9,171016,,,N*67

$GPRMC,190916.993,V,3401.2021,N,11817.4176,W,006.9,169.9,171016,,,N*64

$GPRMC,190917.993,V,3401.2021,N,11817.4176,W,006.9,169.9,171016,,,N*65

$GPRMC,190918.993,V,3401.2021,N,11817.4176,W,006.9,169.9,171016,,,N*6A

$GPRMC,190919.993,V,3401.2021,N,11817.4176,W,006.9,169.9,171016,,,N*6B

$GPRMC,190920.993,V,3401.2021,N,11817.4176,W,006.9,169.9,171016,,,N*61

$GPRMC,190921.993,V,3401.2021,N,11817.4176,W,006.9,169.9,171016,,,N*60

$GPRMC,190922.993,V,3401.2021,N,11817.4176,W,006.9,169.9,171016,,,N*63

$GPRMC,190923.993,V,3401.2021,N,11817.4176,W,006.9,169.9,171016,,,N*62

$GPRMC,190924.993,V,3401.2021,N,11817.4176,W,006.9,169.9,171016,,,N*65

$GPRMC,190925.993,V,3401.2021,N,11817.4176,W,006.9,169.9,171016,,,N*64

$GPRMC,190926.993,V,3401.2021,N,11817.4176,W,006.9,169.9,171016,,,N*67

$GPRMC,190927.993,V,3401.2021,N,11817.4176,W,006.9,169.9,171016,,,N*66

$GPRMC,190928.993,V,3401.2021,N,11817.4176,W,006.9,169.9,171016,,,N*69

$GPRMC,190929.993,V,3401.2021,N,11817.4176,W,006.9,169.9,171016,,,N*68

$GPRMC,190930.993,V,3401.2021,N,11817.4176,W,006.9,169.9,171016,,,N*60

$GPRMC,190931.993,V,3401.2021,N,11817.4176,W,006.9,169.9,171016,,,N*61

$GPRMC,190932.993,V,3401.2021,N,11817.4176,W,006.9,169.9,171016,,,N*62

$GPRMC,190933.993,V,3401.2021,N,11817.4176,W,006.9,169.9,171016,,,N*63

$GPRMC,190934.993,V,3401.2021,N,11817.4176,W,006.9,169.9,171016,,,N*64

$GPRMC,190935.993,V,3401.2021,N,11817.4176,W,006.9,169.9,171016,,,N*65

$GPRMC,190936.993,V,3401.2021,N,11817.4176,W,006.9,169.9,171016,,,N*66

$GPRMC,190937.993,V,3401.2021,N,11817.4176,W,006.9,169.9,171016,,,N*67

$GPRMC,190938.993,V,3401.2021,N,11817.4176,W,006.9,169.9,171016,,,N*68

$GPRMC,190939.993,V,3401.2021,N,11817.4176,W,006.9,169.9,171016,,,N*69

$GPRMC,190940.993,V,3401.2021,N,11817.4176,W,006.9,169.9,171016,,,N*67

$GPRMC,190941.993,V,3401.2021,N,11817.4176,W,006.9,169.9,171016,,,N*66

$GPRMC,190942.993,V,3401.2021,N,11817.4176,W,006.9,169.9,171016,,,N*65

$GPRMC,190943.993,V,3401.2021,N,11817.4176,W,006.9,169.9,171016,,,N*64

$GPRMC,190944.993,V,3401.2021,N,11817.4176,W,006.9,169.9,171016,,,N*63

$GPRMC,190945.993,V,3401.2021,N,11817.4176,W,006.9,169.9,171016,,,N*62

$GPRMC,190946.993,V,3401.2021,N,11817.4176,W,006.9,169.9,171016,,,N*61

$GPRMC,190947.993,V,3401.2021,N,11817.4176,W,006.9,169.9,171016,,,N*60

$GPRMC,190948.993,V,3401.2021,N,11817.4176,W,006.9,169.9,171016,,,N*6F

$GPRMC,190949.993,V,3401.2021,N,11817.4176,W,006.9,169.9,171016,,,N*6E

$GPRMC,190950.993,V,3401.2021,N,11817.4176,W,006.9,169.9,171016,,,N*66

$GPRMC,190951.993,V,3401.2021,N,11817.4176,W,006.9,169.9,171016,,,N*67

$GPRMC,190952.993,V,3401.2021,N,11817.4176,W,006.9,169.9,171016,,,N*64

